[{"location":"in hac","loggedIn":false,"name":"libero","city":"vel","zip":17893},
{"location":"lorem ipsum","loggedIn":true,"name":"luctus","city":"non","zip":14995},
{"location":"quam fringilla","loggedIn":true,"name":"morbi","city":"tortor","zip":17708},
{"location":"imperdiet sapien","loggedIn":true,"name":"sed","city":"neque","zip":11154},
{"location":"nonummy integer","loggedIn":true,"name":"quam","city":"accumsan","zip":13575},
{"location":"eu orci","loggedIn":true,"name":"enim","city":"diam","zip":12778},
{"location":"suscipit ligula","loggedIn":true,"name":"donec","city":"turpis","zip":13673},
{"location":"enim leo","loggedIn":false,"name":"mauris","city":"elit","zip":17579},
{"location":"curae mauris","loggedIn":true,"name":"vel","city":"convallis","zip":11314},
{"location":"tempus sit","loggedIn":false,"name":"cras","city":"penatibus","zip":16269},
{"location":"nisl nunc","loggedIn":false,"name":"maecenas","city":"quam","zip":18867},
{"location":"sapien quis","loggedIn":false,"name":"est","city":"nulla","zip":18181},
{"location":"erat eros","loggedIn":true,"name":"vestibulum","city":"donec","zip":12003},
{"location":"justo in","loggedIn":false,"name":"vestibulum","city":"id","zip":11184},
{"location":"volutpat convallis","loggedIn":false,"name":"convallis","city":"sit","zip":14596},
{"location":"vel est","loggedIn":false,"name":"iaculis","city":"cursus","zip":18283},
{"location":"et ultrices","loggedIn":false,"name":"id","city":"velit","zip":18400},
{"location":"lobortis est","loggedIn":false,"name":"volutpat","city":"non","zip":12351},
{"location":"odio porttitor","loggedIn":true,"name":"nulla","city":"mi","zip":15463},
{"location":"mi in","loggedIn":false,"name":"lectus","city":"libero","zip":12367},
{"location":"donec pharetra","loggedIn":false,"name":"vestibulum","city":"fusce","zip":18601},
{"location":"ut erat","loggedIn":true,"name":"vestibulum","city":"nisl","zip":17152},
{"location":"pretium iaculis","loggedIn":false,"name":"at","city":"eget","zip":12727},
{"location":"mauris eget","loggedIn":false,"name":"consequat","city":"eget","zip":16773},
{"location":"interdum in","loggedIn":true,"name":"lobortis","city":"a","zip":16396},
{"location":"est lacinia","loggedIn":false,"name":"sit","city":"nullam","zip":15500},
{"location":"sapien arcu","loggedIn":false,"name":"vivamus","city":"velit","zip":13530},
{"location":"amet sapien","loggedIn":true,"name":"sed","city":"lacinia","zip":11765},
{"location":"vivamus vel","loggedIn":true,"name":"diam","city":"etiam","zip":12863},
{"location":"lobortis ligula","loggedIn":false,"name":"risus","city":"sapien","zip":15759},
{"location":"cum sociis","loggedIn":false,"name":"ac","city":"justo","zip":11947},
{"location":"sagittis sapien","loggedIn":true,"name":"dictumst","city":"justo","zip":10729},
{"location":"cubilia curae","loggedIn":false,"name":"erat","city":"lectus","zip":13435},
{"location":"nonummy maecenas","loggedIn":false,"name":"pulvinar","city":"nulla","zip":13071},
{"location":"vel nulla","loggedIn":false,"name":"nec","city":"congue","zip":14761},
{"location":"blandit nam","loggedIn":true,"name":"in","city":"tempus","zip":18713},
{"location":"vulputate elementum","loggedIn":false,"name":"aliquam","city":"magnis","zip":16194},
{"location":"massa volutpat","loggedIn":true,"name":"id","city":"a","zip":19652},
{"location":"non interdum","loggedIn":true,"name":"ultrices","city":"curae","zip":12645},
{"location":"a libero","loggedIn":false,"name":"pellentesque","city":"in","zip":11905},
{"location":"et ultrices","loggedIn":false,"name":"malesuada","city":"consectetuer","zip":11717},
{"location":"lectus aliquam","loggedIn":false,"name":"gravida","city":"luctus","zip":10426},
{"location":"id ligula","loggedIn":true,"name":"et","city":"orci","zip":18051},
{"location":"ridiculus mus","loggedIn":true,"name":"nam","city":"sodales","zip":19057},
{"location":"justo maecenas","loggedIn":true,"name":"tempus","city":"dui","zip":10896},
{"location":"et magnis","loggedIn":false,"name":"lacinia","city":"vel","zip":18774},
{"location":"suscipit nulla","loggedIn":false,"name":"pulvinar","city":"in","zip":18248},
{"location":"turpis adipiscing","loggedIn":true,"name":"orci","city":"pede","zip":14454},
{"location":"penatibus et","loggedIn":false,"name":"mauris","city":"mus","zip":13575},
{"location":"orci luctus","loggedIn":false,"name":"ante","city":"augue","zip":12398},
{"location":"id mauris","loggedIn":false,"name":"orci","city":"cubilia","zip":13553},
{"location":"semper est","loggedIn":false,"name":"donec","city":"nonummy","zip":15735},
{"location":"rhoncus mauris","loggedIn":false,"name":"natoque","city":"purus","zip":14810},
{"location":"faucibus orci","loggedIn":true,"name":"nunc","city":"dignissim","zip":14691},
{"location":"tempus semper","loggedIn":false,"name":"massa","city":"gravida","zip":14652},
{"location":"amet turpis","loggedIn":false,"name":"nunc","city":"ipsum","zip":15198},
{"location":"consequat metus","loggedIn":false,"name":"odio","city":"luctus","zip":10334},
{"location":"ligula vehicula","loggedIn":false,"name":"fusce","city":"mattis","zip":17598},
{"location":"nullam varius","loggedIn":true,"name":"integer","city":"tristique","zip":17329},
{"location":"ac tellus","loggedIn":false,"name":"enim","city":"commodo","zip":10826},
{"location":"ut massa","loggedIn":true,"name":"est","city":"ligula","zip":19798},
{"location":"at vulputate","loggedIn":false,"name":"ut","city":"sagittis","zip":10876},
{"location":"in consequat","loggedIn":true,"name":"vestibulum","city":"dolor","zip":10999},
{"location":"justo maecenas","loggedIn":true,"name":"feugiat","city":"tellus","zip":19272},
{"location":"nam dui","loggedIn":true,"name":"mollis","city":"mauris","zip":14700},
{"location":"nunc viverra","loggedIn":false,"name":"odio","city":"vitae","zip":19805},
{"location":"ac consequat","loggedIn":true,"name":"sed","city":"integer","zip":14034},
{"location":"ligula pellentesque","loggedIn":false,"name":"a","city":"tortor","zip":12428},
{"location":"quam sapien","loggedIn":true,"name":"non","city":"quis","zip":15871},
{"location":"ornare consequat","loggedIn":true,"name":"pellentesque","city":"vivamus","zip":17227},
{"location":"vulputate justo","loggedIn":true,"name":"nisi","city":"luctus","zip":13048},
{"location":"lectus suspendisse","loggedIn":false,"name":"erat","city":"ligula","zip":18587},
{"location":"pede morbi","loggedIn":false,"name":"sapien","city":"congue","zip":18879},
{"location":"vulputate vitae","loggedIn":false,"name":"sit","city":"pharetra","zip":14595},
{"location":"vivamus in","loggedIn":false,"name":"nibh","city":"mi","zip":11429},
{"location":"non velit","loggedIn":true,"name":"nam","city":"sed","zip":15670},
{"location":"ante vestibulum","loggedIn":true,"name":"leo","city":"pede","zip":17916},
{"location":"vel augue","loggedIn":true,"name":"curabitur","city":"odio","zip":13178},
{"location":"tellus in","loggedIn":true,"name":"suspendisse","city":"malesuada","zip":19241},
{"location":"primis in","loggedIn":true,"name":"maecenas","city":"tristique","zip":11311},
{"location":"id mauris","loggedIn":false,"name":"interdum","city":"potenti","zip":14184},
{"location":"lorem ipsum","loggedIn":false,"name":"sem","city":"nulla","zip":12299},
{"location":"proin eu","loggedIn":false,"name":"elementum","city":"ante","zip":17117},
{"location":"in hac","loggedIn":true,"name":"erat","city":"leo","zip":13860},
{"location":"nibh in","loggedIn":true,"name":"odio","city":"sapien","zip":11339},
{"location":"ipsum integer","loggedIn":false,"name":"sapien","city":"platea","zip":12418},
{"location":"dapibus duis","loggedIn":false,"name":"accumsan","city":"non","zip":16969},
{"location":"eget elit","loggedIn":true,"name":"ut","city":"sapien","zip":16147},
{"location":"ultrices mattis","loggedIn":false,"name":"nisl","city":"mauris","zip":19341},
{"location":"ligula suspendisse","loggedIn":false,"name":"pellentesque","city":"turpis","zip":16002},
{"location":"lectus suspendisse","loggedIn":true,"name":"condimentum","city":"tempus","zip":10034},
{"location":"posuere cubilia","loggedIn":false,"name":"proin","city":"cursus","zip":11089},
{"location":"pellentesque quisque","loggedIn":true,"name":"nec","city":"duis","zip":11537},
{"location":"eleifend pede","loggedIn":false,"name":"nulla","city":"semper","zip":11746},
{"location":"diam nam","loggedIn":true,"name":"mi","city":"blandit","zip":16602},
{"location":"enim blandit","loggedIn":true,"name":"rutrum","city":"magna","zip":19421},
{"location":"ut nunc","loggedIn":true,"name":"sapien","city":"ut","zip":14420},
{"location":"montes nascetur","loggedIn":true,"name":"id","city":"molestie","zip":17011},
{"location":"nibh in","loggedIn":true,"name":"enim","city":"convallis","zip":17910},
{"location":"euismod scelerisque","loggedIn":true,"name":"cursus","city":"integer","zip":13189}]
